{
    "route": [
        {
            "name": "SinghPura",
            "latitude": "31.583491436571162",
            "longitude": "74.36847035926235",
            "visibility": "show"
            
        },
        {
            "name": "Shalimar Chowk",
            "latitude": "31.583679558586738",
            "longitude": "74.38004929700573",
            "visibility": "show"
            
        },
        {
            "name": "Bismillah Housing Society",
            "latitude": "31.595061458856645",
            "longitude": "74.48096412428502",
            "visibility": "show"
            
        },
        {
            "name": "Yaadgar-e-Shuhada ",
            "latitude": "31.592720264487458",
            "longitude": "74.46030816660166",
            "visibility": "show"
            
        },
        {
            "name": "QUAID E AZAM INTERCHANGE",
            "latitude": "31.590113849421712",
            "longitude": "74.43454444272558",
            "visibility": "show"
            
        },
        {
            "name": "Salmat Pura",
            "latitude": "31.587928462289874",
            "longitude": "74.41273634420435",
            "visibility": "show"
            
        },
        {
            "name": "Darogy Wala",
            "latitude": "31.586911549567986",
            "longitude": "74.40437229347556",
            "visibility": "show"
            
        },
        {
            "name": "Basi More",
            "latitude": "31.60119629604785",
            "longitude": "74.4011115897849",
            "visibility": "show"
            
        },
        {
            "name": "Astran Bypass",
            "latitude": "31.609813285955724",
            "longitude": "74.40234122365106",
            "visibility": "show"
            
        },
        {
            "name": "Entrance-Gate",
            "latitude": "31.6925664797247",
            "longitude": "74.25186792397604",
            "visibility": "none"
        }
        
    ],
    "path":[
       [74.25186792397604,31.6925664797247]
    ]    
}