{
    "route": [
        {
            "name": "Faizpur Interchange",
            "time":"",
            "latitude": "31.59482190923196",
            "longitude": "74.21760094522188",
            "visibility": "show"
            
        },
        {
            "name": "Kot Abdul Malik",
            "time":"",
            "latitude": "31.619523168045944",
            "longitude": "74.24751454901427",
            "visibility": "show"
            
        },
        {
			"name": "Al Rehman Garden",
			"latitude": 31.602748,
			"longitude": 74.235691,
			"time": "07:13 AM"
		},
		{
			"name": "Green wood city",
			"latitude": 31.6062135,
			"longitude": 74.24347019999999,
			"time": "07:14 AM"
		},
		{
			"name": "Nain Sukh",
			"latitude": 31.6098758,
			"longitude": 74.24956880000002,
			"time": "07:16 AM"
		},
		{
			"name": "Begum kot",
			"latitude": 31.6141188,
			"longitude": 74.2658964,
			"time": "07:22 AM"
		},
		{
			"name": "Yousaf Park",
			"latitude": 31.614794,
			"longitude": 74.26970160000002,
			"time": "07:23 AM"
		},
		{
			"name": "25.no Speedo Bus Stop",
			"latitude": 31.6168693,
			"longitude": 74.2786127,
			"time": "07:25 AM"
		},
		{
			"name": "Jiya Musa",
			"latitude": 31.6174905,
			"longitude": 74.2830495,
			"time": "07:26 AM"
		},
		{
			"name": "Shadrah Chowk",
			"latitude": 31.6187417,
			"longitude": 74.2902024,
			"time": "07:29 AM"
		},
		{
			"name": "Kot Shahab-ud-Din",
			"latitude": 31.6243449,
			"longitude": 74.2887321,
			"time": "07:31 AM"
		},
		{
			"name": "Shahdara Station",
			"latitude": 31.6273525,
			"longitude": 74.2884114,
			"time": "07:32 AM"
		},
		{
			"name": "Matchis Factory",
			"latitude": 31.6374189,
			"longitude": 74.2858795,
			"time": "07:34 AM"
		},
		{
			"name": "Kala Khatai Road ",
			"latitude": 31.644680042821815,
			"longitude":  74.284681245514,
			"time": "07:37 AM"
		},
		{
			"name": "Imamiya Colony",
			"latitude": 31.6478007,
			"longitude": 74.28388050000001,
			"time": "07:38 AM"
		},
		{
			"name": "Feroze Wala",
			"latitude": 31.6535536,
			"longitude": 74.28227950000002,
			"time": "07:40 AM"
		},
		{
			"name": "Rachna Town",
			"latitude": 31.66014,
			"longitude": 74.2812878,
			"time": "07:42 AM"
		},
		{
			"name": "Haider Road",
			"latitude": 31.6728249,
			"longitude": 74.27849520000001,
			"time": "07:45 AM"
		},
		{
			"name": "Rana Town",
			"latitude": 31.6852621,
			"longitude": 74.27580319999998,
			"time": "07:47 AM"
		},
		{
			"name": "UET KSK ",
			"latitude": 31.6944192,
			"longitude": 74.2490497,
			"time": "07:54 AM"
		}
    ],
    "path":[
        [74.235153, 31.602843],
        [74.235317, 31.602901],
        [74.236646, 31.603234],
        [74.238157, 31.603593],
        [74.23871, 31.603727],
        [74.23944, 31.603912],
        [74.239797, 31.604006],
        [74.240065, 31.604073],
        [74.240402, 31.604209],
        [74.240531, 31.604243],
        [74.24066, 31.604323],
        [74.240865, 31.604492],
        [74.241322, 31.604843],
        [74.241579, 31.605038],
        [74.242155, 31.60549],
        [74.242268, 31.605574],
        [74.242704, 31.605898],
        [74.242892, 31.606037],
        [74.242976, 31.606099],
        [74.243197, 31.606261],
        [74.243471, 31.606454],
        [74.243701, 31.606603],
        [74.243933, 31.606753],
        [74.244287, 31.606983],
        [74.244398, 31.607054],
        [74.244871, 31.60736],
        [74.245146, 31.607538],
        [74.245237, 31.607599],
        [74.245682, 31.60789],
        [74.245973, 31.608047],
        [74.246461, 31.608385],
        [74.246971, 31.60868],
        [74.247544, 31.609011],
        [74.247796, 31.609146],
        [74.249067, 31.609737],
        [74.249259, 31.609803],
        [74.249531, 31.610081],
        [74.249583, 31.61018],
        [74.249665, 31.610346],
        [74.249702, 31.61047],
        [74.249778, 31.610668],
        [74.249735, 31.610822],
        [74.249602, 31.611303],
        [74.249253, 31.612565],
        [74.249003, 31.613466],
        [74.248415, 31.615592],
        [74.248295, 31.616024],
        [74.247959, 31.617239],
        [74.247911, 31.617417],
        [74.247781, 31.617898],
        [74.247665, 31.61833],
        [74.247459, 31.619557],
        [74.247456, 31.619654],
        [74.247597, 31.619609],
        [74.247774, 31.619548],
        [74.248903, 31.619222],
        [74.249383, 31.619117],
        [74.249438, 31.619099],
        [74.250988, 31.6186],
        [74.251506, 31.618431],
        [74.252252, 31.61819],
        [74.253621, 31.617748],
        [74.256328, 31.616871],
        [74.256503, 31.616814],
        [74.257354, 31.616542],
        [74.258031, 31.616325],
        [74.258433, 31.616195],
        [74.259402, 31.615879],
        [74.260062, 31.615671],
        [74.260823, 31.615423],
        [74.261425, 31.615229],
        [74.263131, 31.614677],
        [74.263301, 31.614622],
        [74.263669, 31.614503],
        [74.264379, 31.614274],
        [74.264742, 31.614162],
        [74.265071, 31.614083],
        [74.265158, 31.614062],
        [74.265408, 31.614011],
        [74.265626, 31.613991],
        [74.265824, 31.613996],
        [74.265954, 31.614011],
        [74.266347, 31.614092],
        [74.266456, 31.614114],
        [74.272058, 31.615259],
        [74.275879, 31.616056],
        [74.279277, 31.616765],
        [74.280877, 31.617062],
        [74.282137, 31.617295],
        [74.283321, 31.617496],
        [74.285402, 31.61781],
        [74.286606, 31.617979],
        [74.288162, 31.618153],
        [74.288833, 31.61821],
        [74.289339, 31.618219],
        [74.28986, 31.618165],
        [74.289929, 31.618197],
        [74.290038, 31.618279],
        [74.290101, 31.618363],
        [74.290165, 31.618455],
        [74.28986, 31.619878],
        [74.288287, 31.627621],
        [74.287927, 31.629338],
        [74.286961, 31.633946],
        [74.286085, 31.638123],
        [74.285957, 31.638734],
        [74.285927, 31.638884],
        [74.285489, 31.640927],
        [74.285488, 31.640932],
        [74.285445, 31.641111],
        [74.285444, 31.641116],
        [74.284673, 31.644689],
        [74.284183, 31.647126],
        [74.284091, 31.647585],
        [74.284034, 31.647866],
        [74.283839, 31.648763],
        [74.283743, 31.649205],
        [74.283627, 31.649768],
        [74.283512, 31.650329],
        [74.283433, 31.650713],
        [74.283329, 31.651221],
        [74.282908, 31.65327],
        [74.282758, 31.653997],
        [74.282613, 31.654696],
        [74.282502, 31.655232],
        [74.282484, 31.655316],
        [74.282049, 31.657388],
        [74.281785, 31.658653],
        [74.281427, 31.660361],
        [74.281371, 31.660629],
        [74.281316, 31.660893],
        [74.281124, 31.661812],
        [74.280297, 31.665765],
        [74.279958, 31.667387],
        [74.279591, 31.669139],
        [74.279537, 31.669396],
        [74.27936, 31.670239],
        [74.278838, 31.672719],
        [74.278083, 31.676309],
        [74.277935, 31.677012],
        [74.277903, 31.677166],
        [74.277806, 31.677627],
        [74.277179, 31.680702],
        [74.276993, 31.681595],
        [74.276876, 31.682087],
        [74.276563, 31.683674],
        [74.276185, 31.685405],
        [74.275506, 31.688561],
        [74.275475, 31.688706],
        [74.275352, 31.689194],
        [74.275254, 31.689763],
        [74.275091, 31.690544],
        [74.275039, 31.690794],
        [74.274982, 31.691065],
        [74.274843, 31.691621],
        [74.274799, 31.691966],
        [74.27463, 31.69273],
        [74.274368, 31.693919],
        [74.273581, 31.697668],
        [74.273326, 31.698884],
        [74.273093, 31.699996],
        [74.273054, 31.700098],
        [74.273043, 31.700128],
        [74.273001, 31.700185],
        [74.27294, 31.700231],
        [74.272876, 31.700254],
        [74.272791, 31.700266],
        [74.272622, 31.700273],
        [74.272444, 31.700269],
        [74.272267, 31.700253],
        [74.271336, 31.700109],
        [74.271288, 31.700092],
        [74.271249, 31.700063],
        [74.271247, 31.700026],
        [74.271237, 31.699969],
        [74.271196, 31.699895],
        [74.271122, 31.699826],
        [74.271031, 31.699777],
        [74.270944, 31.699753],
        [74.270862, 31.699759],
        [74.270809, 31.699782],
        [74.270775, 31.699812],
        [74.270678, 31.699764],
        [74.270655, 31.699731],
        [74.270637, 31.699705],
        [74.270569, 31.699603],
        [74.270518, 31.699481],
        [74.270486, 31.699351],
        [74.270482, 31.699232],
        [74.270549, 31.69858],
        [74.270542, 31.698467],
        [74.2705, 31.698377],
        [74.270414, 31.698282],
        [74.270219, 31.698122],
        [74.270086, 31.698028],
        [74.269178, 31.697635],
        [74.26895, 31.697575],
        [74.268853, 31.697563],
        [74.268742, 31.697473],
        [74.26702, 31.6974],
        [74.266827, 31.697366],
        [74.266653, 31.697284],
        [74.265515, 31.69656],
        [74.265183, 31.696435],
        [74.263726, 31.696003],
        [74.261798, 31.695433],
        [74.257619, 31.694155],
        [74.257131, 31.694013],
        [74.257023, 31.693981],
        [74.252165, 31.692546],
        [74.252004, 31.692504]
        ]    
}